,City Name,Lat,Long,Max Temp,Humidity,Cloudiness,Wind Speed,Country,Date
0,Lumeje,-11.55,20.78,70.3,66.0,0.0,6.76,AO,1601700008.0
1,Sawakin,19.11,37.33,86.18,62.0,0.0,4.54,SD,1601700008.0
2,Rikitea,-23.12,-134.97,73.13,79.0,3.0,15.64,PF,1601700010.0
3,Bethel,41.37,-73.41,46.99,93.0,1.0,4.7,US,1601700010.0
4,Yellowknife,62.46,-114.35,41.0,93.0,40.0,5.82,CA,1601699883.0
5,Port Moresby,-9.44,147.18,83.64,70.0,7.0,22.86,PG,1601700012.0
6,Dunedin,-45.87,170.5,61.9,55.0,94.0,5.88,NZ,1601700002.0
7,Lithgow,-33.48,150.15,77.0,22.0,0.0,6.71,AU,1601700013.0
8,Nantucket,41.28,-70.1,55.0,67.0,20.0,5.82,US,1601700014.0
9,Dioknisi,41.63,42.39,62.6,87.0,40.0,5.82,GE,1601700014.0
10,Nikolskoye,59.7,30.79,46.99,93.0,82.0,6.71,RU,1601700015.0
11,Norman Wells,65.28,-126.83,59.0,44.0,75.0,9.17,CA,1601700016.0
12,Padang,-0.95,100.35,78.89,72.0,100.0,6.11,ID,1601700016.0
13,Atuona,-9.8,-139.03,78.76,74.0,14.0,20.62,PF,1601700017.0
14,Butaritari,3.07,172.79,81.75,66.0,44.0,9.35,KI,1601700018.0
15,Avarua,-21.21,-159.78,77.0,78.0,96.0,3.36,CK,1601699968.0
16,Aklavik,68.22,-135.01,42.8,87.0,75.0,5.82,CA,1601700019.0
17,Port Hedland,-20.32,118.57,100.4,14.0,26.0,24.16,AU,1601700020.0
18,Dikson,73.51,80.55,34.54,88.0,99.0,22.24,RU,1601700020.0
19,Hermanus,-34.42,19.23,55.99,94.0,99.0,1.99,ZA,1601700021.0
20,Hilo,19.73,-155.09,80.6,74.0,20.0,8.05,US,1601700021.0
21,Shimoda,34.67,138.95,75.2,69.0,75.0,8.05,JP,1601700022.0
22,Linqiong,30.42,103.46,71.6,60.0,100.0,8.95,CN,1601700023.0
23,Qaanaaq,77.48,-69.36,19.54,82.0,29.0,6.24,GL,1601700024.0
24,Biak,-0.91,122.88,83.17,66.0,97.0,10.33,ID,1601700025.0
25,Rabaul,-4.2,152.17,85.66,64.0,93.0,11.95,PG,1601700025.0
26,San Cristobal,-0.9,-89.62,66.97,83.0,80.0,12.5,EC,1601700026.0
27,Barrow,71.29,-156.79,35.6,93.0,90.0,18.34,US,1601700026.0
28,Jamestown,-15.94,-5.72,60.82,89.0,99.0,17.47,SH,1601700028.0
29,Leningradskiy,69.38,178.42,32.56,94.0,100.0,11.23,RU,1601700028.0
30,Bacolod,10.67,122.95,87.4,69.0,39.0,8.57,PH,1601700029.0
31,Havoysund,71.0,24.66,51.8,71.0,62.0,26.4,NO,1601700029.0
32,Carnarvon,-24.87,113.63,69.8,35.0,0.0,26.4,AU,1601700022.0
33,Bengkulu,-3.8,102.27,83.41,68.0,100.0,5.55,ID,1601700011.0
34,Coachella,33.68,-116.17,86.0,36.0,1.0,3.36,US,1601699804.0
35,Khandagayty,50.73,92.05,34.74,73.0,45.0,6.58,RU,1601700032.0
36,Poum,-20.23,164.02,72.3,72.0,52.0,15.35,NC,1601700033.0
37,Punta Arenas,-53.15,-70.92,39.2,60.0,90.0,19.46,CL,1601699973.0
38,San Vicente,15.3,120.65,89.6,70.0,75.0,6.93,PH,1601700034.0
39,Thompson,55.74,-97.86,26.6,92.0,20.0,3.36,CA,1601700034.0
40,Ewo,-0.87,14.82,71.29,90.0,53.0,2.66,CG,1601700035.0
41,Lipin Bor,60.26,37.98,48.94,89.0,99.0,5.86,RU,1601700036.0
42,Sabang,5.89,95.32,83.37,73.0,100.0,16.04,ID,1601700036.0
43,Gasa,27.9,89.73,64.71,54.0,85.0,5.37,BT,1601700037.0
44,Nesna,66.2,13.02,48.79,72.0,0.0,23.89,NO,1601700037.0
45,Conway,35.09,-92.44,54.0,93.0,75.0,3.36,US,1601700038.0
46,Pevek,69.7,170.31,33.48,85.0,98.0,2.86,RU,1601700039.0
47,Menomonie,44.88,-91.92,33.01,88.0,1.0,4.16,US,1601700040.0
48,Ilulissat,69.22,-51.1,33.8,80.0,88.0,14.99,GL,1601700041.0
49,Bambous Virieux,-20.34,57.76,77.0,78.0,20.0,3.36,MU,1601700041.0
50,Makat,47.65,53.35,62.11,25.0,0.0,3.27,KZ,1601700042.0
51,Vaini,-21.2,-175.2,73.4,88.0,90.0,11.41,TO,1601700042.0
52,Yangliuqing,39.14,117.0,69.8,26.0,8.0,8.95,CN,1601700043.0
53,Busselton,-33.65,115.33,57.99,68.0,50.0,5.99,AU,1601699952.0
54,Esperance,-33.87,121.9,53.6,76.0,75.0,23.04,AU,1601700017.0
55,Mar Del Plata,-38.0,-57.56,45.0,52.0,75.0,14.99,AR,1601700044.0
56,Hithadhoo,-0.6,73.08,83.66,72.0,85.0,10.63,MV,1601700046.0
57,Kaitangata,-46.28,169.85,66.99,42.0,92.0,10.0,NZ,1601700046.0
58,Valparaiso,-33.04,-71.63,39.2,100.0,0.0,2.24,CL,1601699904.0
59,Ushuaia,-54.8,-68.3,35.6,69.0,75.0,4.7,AR,1601700047.0
60,Bluff,-46.6,168.33,60.01,70.0,98.0,13.0,NZ,1601700048.0
61,Atbasar,51.8,68.33,55.72,65.0,93.0,5.61,KZ,1601700049.0
62,Hun,29.13,15.95,78.66,19.0,0.0,6.51,LY,1601700049.0
63,Yerofey Pavlovich,53.97,121.97,39.42,94.0,100.0,11.63,RU,1601700050.0
64,Puerto Ayora,-0.74,-90.35,66.99,87.0,76.0,7.0,EC,1601699961.0
65,Tucuman,-26.82,-65.22,62.6,51.0,30.0,9.17,AR,1601700051.0
66,Srednekolymsk,67.45,153.68,35.15,79.0,99.0,6.08,RU,1601700052.0
67,Yeppoon,-23.13,150.73,80.6,39.0,2.0,14.99,AU,1601700052.0
68,Cherskiy,68.75,161.3,35.58,79.0,89.0,5.66,RU,1601700053.0
69,Nouakchott,18.09,-15.98,80.6,44.0,0.0,16.11,MR,1601700027.0
70,Qasigiannguit,68.82,-51.19,33.8,80.0,88.0,14.99,GL,1601700054.0
71,Georgetown,-7.93,-14.42,73.85,81.0,91.0,17.87,SH,1601700055.0
72,Vao,-22.67,167.48,68.65,74.0,4.0,24.52,NC,1601700002.0
73,Torbay,47.67,-52.73,62.01,100.0,90.0,9.17,CA,1601700057.0
74,Hobart,-42.88,147.33,63.0,77.0,75.0,6.93,AU,1601699990.0
75,Ribeira Grande,38.52,-28.7,68.79,80.0,96.0,18.86,PT,1601700058.0
76,Gobabis,-22.45,18.97,55.04,28.0,6.0,5.55,NA,1601700059.0
77,Broken Hill,-31.95,141.43,89.6,15.0,37.0,14.99,AU,1601700060.0
78,Cape Town,-33.93,18.42,57.99,89.0,5.0,4.0,ZA,1601700036.0
79,Manjeshwar,12.72,74.89,82.4,78.0,75.0,3.36,IN,1601700061.0
80,Constitucion,23.99,-104.67,52.9,53.0,0.0,2.24,MX,1601700061.0
81,Trelaze,47.45,-0.47,48.99,93.0,97.0,6.93,FR,1601700062.0
82,Belaya Gora,68.53,146.42,36.64,66.0,0.0,10.42,RU,1601700063.0
83,Port Alfred,-33.59,26.89,59.61,85.0,100.0,22.26,ZA,1601700064.0
84,Bredasdorp,-34.53,20.04,57.2,93.0,100.0,8.05,ZA,1601700064.0
85,Deming,32.27,-107.76,66.2,17.0,1.0,6.93,US,1601700065.0
86,Pastavy,55.12,26.83,49.93,86.0,97.0,11.45,BY,1601700066.0
87,La Ronge,55.1,-105.28,35.6,93.0,20.0,4.88,CA,1601700066.0
88,Cedar City,37.68,-113.06,57.2,14.0,1.0,4.7,US,1601699972.0
89,New Norfolk,-42.78,147.06,63.0,75.0,96.0,1.99,AU,1601700067.0
90,Kirovskiy,45.09,133.51,58.93,59.0,8.0,13.09,RU,1601700068.0
91,Port Elizabeth,-33.92,25.57,60.8,87.0,90.0,13.87,ZA,1601700070.0
92,Zhigansk,66.77,123.37,31.3,97.0,100.0,22.15,RU,1601700070.0
93,Liwale,-9.77,37.93,72.36,74.0,91.0,5.17,TZ,1601700071.0
94,Souillac,-20.52,57.52,71.6,78.0,20.0,3.36,MU,1601700072.0
95,Cidreira,-30.18,-50.21,58.98,83.0,100.0,18.59,BR,1601700073.0
96,Banjar,-8.19,114.97,87.8,74.0,20.0,12.75,ID,1601700073.0
97,Merauke,-8.47,140.33,82.58,73.0,76.0,21.81,ID,1601700074.0
98,Vila Franca Do Campo,37.72,-25.43,68.0,82.0,75.0,9.17,PT,1601700075.0
99,Tuktoyaktuk,69.45,-133.04,41.0,100.0,90.0,11.41,CA,1601700076.0
100,Ndola,-12.96,28.64,69.49,40.0,3.0,10.33,ZM,1601700076.0
101,Alta Floresta,-9.88,-56.09,76.69,63.0,74.0,2.06,BR,1601700078.0
102,Shingu,33.73,135.98,78.8,61.0,75.0,3.36,JP,1601699950.0
103,Petrykivka,48.73,34.64,55.4,93.0,0.0,4.47,UA,1601700079.0
104,Kapaa,22.08,-159.32,82.4,74.0,40.0,4.7,US,1601699780.0
105,Lebu,-37.62,-73.65,44.53,83.0,85.0,6.69,CL,1601700080.0
106,El Retorno,2.33,-72.63,71.69,95.0,95.0,0.78,CO,1601700081.0
107,Neon Karlovasion,37.79,26.7,60.8,87.0,0.0,4.81,GR,1601700082.0
108,Atar,20.52,-13.05,81.12,28.0,0.0,10.74,MR,1601700082.0
109,Almaznyy,48.04,40.05,59.0,44.0,40.0,15.66,RU,1601700083.0
110,Albany,-35.02,117.89,57.2,50.0,75.0,16.11,AU,1601700044.0
111,Komsomolskiy,43.98,46.7,65.55,57.0,100.0,9.33,RU,1601700084.0
112,Placido De Castro,-10.34,-67.19,77.95,67.0,18.0,2.8,BR,1601700085.0
113,Sao Filipe,14.9,-24.5,80.64,74.0,51.0,17.07,CV,1601700086.0
114,Khatanga,71.97,102.5,26.29,97.0,94.0,10.76,RU,1601700086.0
115,Sorland,67.67,12.69,51.62,79.0,13.0,14.72,NO,1601700040.0
116,Orumiyeh,37.55,45.08,50.0,87.0,20.0,6.93,IR,1601700087.0
117,Namibe,-15.2,12.15,63.73,74.0,99.0,4.9,AO,1601700089.0
118,Humaita,-7.51,-63.02,72.86,94.0,91.0,2.44,BR,1601700089.0
119,Divnomorskoye,44.5,38.14,63.28,76.0,0.0,3.94,RU,1601700090.0
120,Kavaratti,10.57,72.64,84.2,74.0,20.0,4.7,IN,1601700091.0
121,Rundu,-17.93,19.77,68.45,23.0,28.0,5.39,NA,1601700091.0
122,Harlingen,53.17,5.42,57.2,82.0,90.0,17.22,NL,1601700092.0
123,Iranshahr,27.2,60.68,84.2,16.0,0.0,2.59,IR,1601700092.0
124,Champerico,14.3,-91.92,68.0,95.0,100.0,7.85,GT,1601700093.0
125,Urumqi,43.8,87.6,57.2,28.0,100.0,2.24,CN,1601700094.0
126,Saldanha,-33.01,17.94,54.57,82.0,0.0,6.73,ZA,1601700039.0
127,Nueva Loja,0.08,-76.88,69.58,96.0,7.0,2.64,EC,1601700015.0
128,Areia Branca,-4.96,-37.14,73.74,76.0,0.0,13.96,BR,1601699981.0
129,Geraldton,49.73,-86.95,32.0,96.0,90.0,1.45,CA,1601700097.0
130,Matay,28.42,30.78,71.11,76.0,0.0,10.07,EG,1601700097.0
131,Nganjuk,-7.61,111.9,94.53,39.0,77.0,10.98,ID,1601700098.0
132,Chuy,-33.7,-53.46,49.95,74.0,25.0,11.23,UY,1601700098.0
133,Salalah,17.02,54.09,77.0,65.0,20.0,2.24,OM,1601700099.0
134,Killybegs,54.63,-8.45,44.01,89.0,100.0,14.72,IE,1601700100.0
135,Luau,-10.71,22.22,70.43,73.0,1.0,1.77,AO,1601700100.0
136,Albury,-36.08,146.92,78.8,39.0,0.0,10.29,AU,1601700101.0
137,Upernavik,72.79,-56.15,32.85,86.0,98.0,3.98,GL,1601700101.0
138,Provideniya,64.38,-173.3,41.97,87.0,95.0,10.94,RU,1601700102.0
139,Hovd,48.01,91.64,38.73,65.0,0.0,3.13,MN,1601700103.0
140,Taltal,-25.4,-70.48,56.68,75.0,87.0,3.06,CL,1601700103.0
141,Fatehabad,29.52,75.45,94.26,16.0,0.0,2.17,IN,1601700104.0
142,Ahipara,-35.17,173.17,59.41,65.0,25.0,2.59,NZ,1601700105.0
143,Guerrero Negro,27.98,-114.06,77.18,56.0,0.0,10.56,MX,1601700105.0
144,Karratha,-20.74,116.85,90.28,26.0,0.0,17.29,AU,1601700106.0
145,Bandarbeyla,9.49,50.81,80.11,75.0,35.0,10.51,SO,1601700073.0
146,Grindavik,63.84,-22.43,37.4,74.0,20.0,10.29,IS,1601700107.0
147,Antofagasta,-23.65,-70.4,57.2,76.0,90.0,11.41,CL,1601700108.0
148,Lorengau,-2.02,147.27,84.65,71.0,49.0,10.11,PG,1601700108.0
149,Salinas,-2.22,-80.97,68.07,87.0,47.0,14.29,EC,1601700109.0
150,Mahebourg,-20.41,57.7,71.6,78.0,20.0,3.36,MU,1601700025.0
151,Pathein,16.78,94.73,86.45,76.0,43.0,6.44,MM,1601700110.0
152,Kahului,20.89,-156.47,82.4,69.0,75.0,4.7,US,1601700111.0
153,Sikonge,-5.63,32.77,71.6,60.0,40.0,23.04,TZ,1601700111.0
154,Boone,39.03,-92.33,50.0,73.0,100.0,6.78,US,1601699939.0
155,Yar-Sale,66.83,70.83,36.41,78.0,51.0,23.38,RU,1601700045.0
156,Astana,51.18,71.45,46.4,87.0,97.0,4.47,KZ,1601700038.0
157,Aykhal,66.0,111.5,32.0,91.0,90.0,8.95,RU,1601700115.0
158,Kaura Namoda,12.59,6.58,75.67,79.0,15.0,3.85,NG,1601700115.0
159,Hami,42.8,93.45,63.0,24.0,0.0,1.32,CN,1601700116.0
160,Vaitape,-16.52,-151.75,79.23,78.0,8.0,19.86,PF,1601700117.0
161,Lagoa,39.05,-27.98,68.16,82.0,98.0,18.34,PT,1601700118.0
162,Yumen,40.28,97.2,55.9,29.0,0.0,17.69,CN,1601700096.0
163,Talnakh,69.49,88.4,26.6,100.0,90.0,20.13,RU,1601700053.0
164,Faanui,-16.48,-151.75,78.37,79.0,9.0,19.89,PF,1601700119.0
165,Chokurdakh,70.63,147.92,32.94,82.0,0.0,10.49,RU,1601700120.0
166,Namatanai,-3.67,152.43,83.3,71.0,100.0,9.1,PG,1601700121.0
167,Mbengwi,6.02,10.0,63.0,93.0,100.0,2.1,CM,1601700121.0
168,Sakakah,29.97,40.21,71.6,24.0,0.0,8.57,SA,1601700122.0
169,Katherine,-14.47,132.27,95.0,20.0,91.0,13.87,AU,1601700123.0
170,Castelo Do Piaui,-5.32,-41.55,77.32,56.0,90.0,4.94,BR,1601700123.0
171,Whitecourt,54.15,-115.69,50.0,68.0,20.0,1.66,CA,1601700001.0
172,Vila Velha,-20.33,-40.29,75.2,83.0,0.0,13.87,BR,1601700035.0
173,Longyearbyen,78.22,15.64,32.0,92.0,75.0,4.7,SJ,1601700046.0
174,Rawson,-43.3,-65.1,37.92,74.0,0.0,8.75,AR,1601700050.0
175,Porto Empedocle,37.29,13.53,72.79,71.0,8.0,12.08,IT,1601700127.0
176,Saint George,32.38,-64.68,78.8,83.0,40.0,12.75,BM,1601700128.0
177,Husavik,66.04,-17.34,32.0,93.0,90.0,7.11,IS,1601700023.0
178,San Policarpo,12.18,125.51,84.15,80.0,60.0,8.25,PH,1601700129.0
179,Balkanabat,39.51,54.37,71.56,21.0,96.0,11.72,TM,1601700130.0
180,Saskylakh,71.92,114.08,28.49,95.0,70.0,15.52,RU,1601699967.0
181,Albacete,38.83,-2.0,42.8,87.0,0.0,6.93,ES,1601700131.0
182,Adrar,25.75,-1.0,85.93,13.0,4.0,7.36,DZ,1601700133.0
183,Contamana,-7.33,-75.02,74.7,71.0,4.0,1.28,PE,1601700134.0
184,Fare,-16.7,-151.02,79.41,77.0,8.0,20.13,PF,1601700135.0
185,Formosa,-26.18,-58.18,68.0,77.0,90.0,16.11,AR,1601700135.0
186,Walvis Bay,-22.96,14.51,46.99,87.0,0.0,1.01,NA,1601700136.0
187,Nome,64.5,-165.41,48.2,70.0,75.0,6.93,US,1601700027.0
188,Vihti,60.42,24.32,50.0,96.0,18.0,7.0,FI,1601700137.0
189,Fomboni,-12.28,43.74,77.23,83.0,44.0,5.48,KM,1601700137.0
190,Sitka,57.05,-135.33,53.6,93.0,90.0,5.82,US,1601699983.0
191,Santa Isabel Do Rio Negro,-0.41,-65.02,75.02,84.0,98.0,2.15,BR,1601700139.0
192,Fortuna,40.6,-124.16,57.0,94.0,0.0,1.9,US,1601699881.0
193,Westport,53.8,-9.52,48.0,85.0,92.0,7.74,IE,1601700140.0
194,Kangaatsiaq,68.31,-53.46,34.32,85.0,100.0,14.09,GL,1601700140.0
195,Flin Flon,54.77,-101.86,35.51,94.0,82.0,3.78,CA,1601700141.0
196,Puri,19.8,85.85,84.2,94.0,75.0,6.93,IN,1601700141.0
197,Saint-Augustin,51.23,-58.65,51.84,94.0,87.0,9.22,CA,1601700142.0
198,Sturgis,41.8,-85.42,41.0,93.0,1.0,2.55,US,1601700143.0
199,Amiens,49.9,2.3,51.8,100.0,100.0,5.82,FR,1601700143.0
200,Tessalit,20.2,1.01,86.05,28.0,80.0,9.89,ML,1601700042.0
201,Teknaf,20.86,92.31,88.16,68.0,15.0,9.66,BD,1601700144.0
202,Yantal,56.85,105.25,39.67,65.0,65.0,5.39,RU,1601700145.0
203,Hamilton,32.29,-64.78,78.8,83.0,40.0,12.75,BM,1601699888.0
204,Severo-Kurilsk,50.68,156.12,49.39,71.0,6.0,14.63,RU,1601700146.0
205,Peterhead,57.51,-1.8,50.0,93.0,100.0,12.75,GB,1601700146.0
206,Leh,34.17,77.58,48.96,37.0,0.0,4.76,IN,1601700147.0
207,Oranjestad,12.52,-70.03,84.2,79.0,20.0,16.11,AW,1601700148.0
208,Touros,-5.2,-35.46,71.6,94.0,40.0,2.24,BR,1601700149.0
209,Shelburne,44.08,-80.2,37.4,86.0,20.0,3.36,CA,1601700097.0
210,East London,-33.02,27.91,55.4,93.0,90.0,11.41,ZA,1601700150.0
211,Garden City,42.33,-83.33,48.2,66.0,90.0,5.82,US,1601699910.0
212,Poopo,-18.37,-66.97,48.67,69.0,13.0,5.5,BO,1601700151.0
213,Oudtshoorn,-33.59,22.2,55.4,100.0,90.0,14.99,ZA,1601699888.0
214,Yulara,-25.24,130.99,98.6,5.0,0.0,20.8,AU,1601700152.0
215,Lekoni,-1.58,14.26,71.26,87.0,20.0,3.87,GA,1601700152.0
216,Makurdi,7.74,8.51,71.17,92.0,99.0,2.24,NG,1601700153.0
217,Waipawa,-41.41,175.52,60.8,72.0,19.0,20.8,NZ,1601699965.0
218,Zhezkazgan,47.8,67.71,50.0,66.0,3.0,13.42,KZ,1601700154.0
219,Castro,-42.47,-73.77,37.99,80.0,0.0,4.7,CL,1601700155.0
220,Cockburn Town,21.46,-71.14,83.3,78.0,99.0,21.34,TC,1601700155.0
221,College,64.86,-147.8,59.0,47.0,75.0,6.93,US,1601700156.0
222,Okhotsk,59.38,143.3,52.72,46.0,41.0,5.82,RU,1601700157.0
223,Tuatapere,-46.13,167.68,60.01,70.0,100.0,13.0,NZ,1601700158.0
224,Ballina,-28.87,153.57,78.8,56.0,0.0,13.87,AU,1601700158.0
225,Kloulklubed,7.04,134.26,87.8,66.0,75.0,6.93,PW,1601700159.0
226,Meulaboh,4.14,96.13,85.44,61.0,100.0,4.72,ID,1601700160.0
227,Nizhniy Kuranakh,58.84,125.49,39.52,72.0,97.0,6.06,RU,1601700160.0
228,Banda Aceh,5.56,95.32,86.56,60.0,100.0,11.36,ID,1601700162.0
229,Kiunga,-6.12,141.29,86.97,71.0,82.0,1.92,PG,1601700163.0
230,Hofn,64.25,-15.21,47.32,85.0,100.0,13.4,IS,1601700022.0
231,Victoria,-4.62,55.45,84.2,79.0,40.0,8.05,SC,1601699877.0
232,Lokoja,7.8,6.74,71.82,93.0,59.0,2.64,NG,1601700164.0
233,Agirish,61.92,63.02,38.16,78.0,85.0,14.25,RU,1601700165.0
234,Waitati,-45.75,170.57,64.96,48.0,93.0,9.55,NZ,1601699872.0
235,Camalu,30.85,-116.07,73.38,54.0,0.0,2.1,MX,1601700166.0
236,Beipiao,41.79,120.78,66.31,26.0,0.0,13.09,CN,1601700167.0
237,Vermillion,42.78,-96.93,48.2,93.0,90.0,6.93,US,1601700167.0
238,Abeche,13.83,20.83,78.4,69.0,0.0,3.8,TD,1601700168.0
239,Jingdezhen,29.29,117.21,82.69,73.0,80.0,3.62,CN,1601700168.0
240,Ancud,-41.87,-73.82,37.99,80.0,0.0,4.7,CL,1601700169.0
241,Moerai,-22.43,-151.33,75.38,85.0,67.0,8.88,PF,1601700170.0
242,Lewistown,40.6,-77.57,48.2,70.0,1.0,8.05,US,1601700170.0
243,Kharp,66.8,65.81,36.05,79.0,41.0,10.96,RU,1601700171.0
244,Vulcanesti,45.68,28.4,61.38,79.0,83.0,6.08,MD,1601700171.0
245,Pisco,-13.7,-76.22,62.6,82.0,49.0,6.93,PE,1601700172.0
246,Geraldton,-28.77,114.6,64.4,39.0,25.0,23.04,AU,1601700173.0
247,Marau,-28.45,-52.2,61.43,86.0,85.0,12.77,BR,1601700173.0
248,Anajatuba,-3.26,-44.62,75.7,89.0,95.0,4.05,BR,1601700174.0
249,Byron Bay,-28.65,153.62,75.99,56.0,0.0,13.87,AU,1601700175.0
250,Mount Isa,-20.73,139.5,93.2,14.0,0.0,12.75,AU,1601700176.0
251,Katsuura,35.13,140.3,78.01,69.0,75.0,4.7,JP,1601700176.0
252,Kadur,13.55,76.01,79.63,65.0,73.0,5.64,IN,1601700177.0
253,Salisbury,46.04,-65.05,57.2,93.0,75.0,5.82,CA,1601700103.0
254,Najran,17.49,44.13,66.2,25.0,0.0,5.82,SA,1601700125.0
255,Juneau,58.3,-134.42,54.0,100.0,90.0,2.42,US,1601700179.0
256,Labytnangi,66.66,66.42,38.1,72.0,25.0,13.0,RU,1601700180.0
257,Port Hardy,50.7,-127.42,53.6,93.0,5.0,5.73,CA,1601700180.0
258,Trincomalee,8.57,81.23,88.2,60.0,57.0,17.0,LK,1601700181.0
259,Kutum,14.2,24.67,74.34,61.0,24.0,8.68,SD,1601700182.0
260,Hambantota,6.12,81.12,87.8,66.0,40.0,20.8,LK,1601700183.0
261,Vestmannaeyjar,63.44,-20.27,41.31,66.0,94.0,16.91,IS,1601700183.0
262,Tasiilaq,65.61,-37.64,33.8,86.0,100.0,4.7,GL,1601699956.0
263,Cabo San Lucas,22.89,-109.91,82.99,63.0,0.0,1.01,MX,1601700185.0
264,Kavieng,-2.57,150.8,84.38,68.0,21.0,9.48,PG,1601700186.0
265,Parkes,-33.13,148.18,76.32,44.0,0.0,10.29,AU,1601700187.0
266,Pemba,-12.97,40.52,75.2,100.0,20.0,2.24,MZ,1601700187.0
267,Koulikoro,14.0,-7.75,76.39,83.0,96.0,10.11,ML,1601700188.0
268,Ahuimanu,21.44,-157.84,80.6,78.0,40.0,6.93,US,1601700189.0
269,Mangrol,21.12,70.12,84.4,68.0,13.0,6.87,IN,1601700189.0
270,Santa Cruz,10.26,-85.59,73.94,95.0,100.0,3.49,CR,1601700190.0
271,Suleja,9.18,7.18,73.4,83.0,40.0,2.24,NG,1601700190.0
272,Harbour Breton,47.48,-55.8,64.99,100.0,100.0,7.0,CA,1601700191.0
273,Susangerd,31.56,48.18,78.8,57.0,0.0,2.24,IR,1601700192.0
274,Truth Or Consequences,33.13,-107.25,73.4,15.0,1.0,11.41,US,1601700192.0
275,Jayanca,-6.39,-79.82,63.0,85.0,86.0,5.86,PE,1601700193.0
276,Olinda,-8.01,-34.86,78.8,69.0,75.0,14.99,BR,1601700193.0
277,Borogontsy,62.67,131.17,38.7,67.0,19.0,3.94,RU,1601700195.0
278,San Quintin,30.48,-115.95,73.0,58.0,0.0,2.64,MX,1601700195.0
279,Grand Gaube,-20.01,57.66,77.0,64.0,0.0,1.99,MU,1601700196.0
280,Haines Junction,60.75,-137.51,44.6,77.0,62.0,8.66,CA,1601700197.0
281,Nemuro,43.32,145.57,59.0,93.0,75.0,9.17,JP,1601700191.0
282,Rexburg,43.83,-111.79,53.6,50.0,40.0,3.6,US,1601700198.0
283,Bathsheba,13.22,-59.52,75.2,88.0,40.0,9.17,BB,1601700198.0
284,Sungaipenuh,-2.08,101.38,77.18,74.0,94.0,2.39,ID,1601700199.0
285,Burnie,-41.07,145.92,71.01,51.0,100.0,4.0,AU,1601700200.0
286,Otradnoye,59.78,30.82,46.99,93.0,76.0,6.71,RU,1601700200.0
287,Taoudenni,22.68,-3.98,86.38,27.0,0.0,5.88,ML,1601700120.0
288,Soe,-9.86,124.28,87.31,33.0,23.0,11.81,ID,1601700202.0
289,Phan Thiet,10.93,108.1,87.91,66.0,99.0,7.78,VN,1601700203.0
290,Oistins,13.07,-59.53,75.2,88.0,40.0,9.17,BB,1601700204.0
291,San Miguel,-10.85,-65.44,75.45,80.0,45.0,4.32,BO,1601700204.0
292,Ostrovnoy,68.05,39.51,42.24,66.0,100.0,4.85,RU,1601700205.0
293,Waren,53.52,12.68,57.0,93.0,94.0,16.26,DE,1601700206.0
294,Le Port,-20.94,55.29,78.8,61.0,2.0,4.7,RE,1601700207.0
295,Lusaka,-15.41,28.29,70.81,56.0,0.0,15.41,ZM,1601700208.0
296,Alofi,-19.06,-169.92,80.6,83.0,24.0,12.75,NU,1601700209.0
297,Guozhen,34.37,107.36,66.78,56.0,86.0,0.94,CN,1601700209.0
298,Mount Gambier,-37.83,140.77,77.0,44.0,90.0,11.41,AU,1601700210.0
299,Santiago Del Estero,-27.8,-64.26,60.28,65.0,10.0,10.49,AR,1601700122.0
300,Kodiak,57.79,-152.41,51.8,81.0,90.0,6.93,US,1601700211.0
301,Klaksvik,62.23,-6.59,50.0,93.0,98.0,21.92,FO,1601700212.0
302,Diapaga,12.07,1.79,75.0,81.0,90.0,3.36,BF,1601700212.0
303,Mushie,-3.02,16.9,72.01,88.0,6.0,1.25,CD,1601700213.0
304,Machilipatnam,16.17,81.13,84.2,89.0,90.0,4.7,IN,1601700214.0
305,Mercedes,-34.65,-59.43,45.0,76.0,1.0,4.0,AR,1601700215.0
306,Saint-Pierre,14.74,-61.18,79.0,100.0,75.0,5.82,MQ,1601700216.0
307,Raudeberg,61.99,5.14,61.0,55.0,75.0,10.8,NO,1601700216.0
308,Otane,-39.88,176.63,60.01,58.0,0.0,14.0,NZ,1601700217.0
309,Portland,-38.33,141.6,63.73,72.0,57.0,6.11,AU,1601700217.0
310,Sola,-13.88,167.55,78.35,85.0,66.0,23.02,VU,1601700218.0
311,Wilmington,34.23,-77.94,63.0,67.0,75.0,10.29,US,1601700218.0
312,Chipinge,-20.19,32.62,63.12,81.0,33.0,5.28,ZW,1601700219.0
313,Le Creusot,46.81,4.42,44.01,93.0,100.0,3.36,FR,1601700220.0
314,Aswan,24.09,32.91,85.01,24.0,16.0,12.95,EG,1601700220.0
315,Champasak,14.75,106.0,86.0,74.0,75.0,2.24,LA,1601700221.0
316,The Valley,18.22,-63.06,82.4,78.0,20.0,4.7,AI,1601700144.0
317,Kangaba,11.93,-8.42,69.96,97.0,96.0,2.24,ML,1601700223.0
318,Cowra,-33.83,148.68,69.01,53.0,0.0,4.0,AU,1601700224.0
319,Peniche,39.36,-9.38,60.01,77.0,13.0,4.0,PT,1601699964.0
320,Mangai,-4.05,19.53,70.88,97.0,100.0,0.58,CD,1601700225.0
321,Buchanan,5.88,-10.05,76.35,88.0,52.0,6.13,LR,1601700225.0
322,Soto La Marina,23.77,-98.22,68.0,89.0,0.0,3.18,MX,1601700226.0
323,Neiafu,-18.65,-173.98,77.0,94.0,75.0,8.05,TO,1601700228.0
324,Paamiut,61.99,-49.67,36.75,88.0,100.0,7.61,GL,1601700229.0
325,Ixtapa,20.7,-105.2,82.4,69.0,5.0,2.24,MX,1601700229.0
326,Fort Nelson,58.81,-122.7,48.2,81.0,75.0,3.36,CA,1601700230.0
327,Buchmany,51.07,28.04,52.16,87.0,98.0,8.59,UA,1601700231.0
328,Magistralnyy,56.17,107.45,39.47,64.0,25.0,5.53,RU,1601700232.0
329,Kieta,-6.22,155.63,82.8,74.0,46.0,6.85,PG,1601700232.0
330,Livingston,40.8,-74.31,55.4,81.0,1.0,7.34,US,1601700032.0
331,Saint-Joseph,-21.37,55.62,78.8,65.0,12.0,8.05,RE,1601700234.0
332,Puerto Narino,-3.77,-70.38,75.2,100.0,40.0,2.24,CO,1601700234.0
333,Tutoia,-2.76,-42.27,79.93,78.0,73.0,16.4,BR,1601700139.0
334,Tommot,58.96,126.29,40.37,69.0,94.0,4.12,RU,1601700235.0
335,San Pedro,-24.23,-64.87,69.8,35.0,10.0,13.87,AR,1601700236.0
336,Anniston,33.66,-85.83,48.2,87.0,1.0,2.26,US,1601700237.0
337,Tank,32.22,70.38,91.26,11.0,0.0,1.1,PK,1601700237.0
338,Mecca,21.43,39.83,86.88,46.0,0.0,3.56,SA,1601700023.0
339,Gustavo Diaz Ordaz,26.23,-98.58,73.99,79.0,0.0,9.73,MX,1601700238.0
340,Kautokeino,69.01,23.04,45.3,89.0,100.0,15.93,NO,1601700239.0
341,Sibolga,1.74,98.78,84.31,66.0,100.0,4.52,ID,1601700239.0
342,Aylesbury,51.82,-0.81,55.99,87.0,100.0,5.01,GB,1601700240.0
343,Steamboat Springs,40.48,-106.83,55.4,36.0,1.0,3.36,US,1601700240.0
344,Saint-Philippe,-21.36,55.77,78.8,65.0,19.0,8.05,RE,1601700241.0
345,Kogon,39.72,64.55,59.0,44.0,0.0,2.24,UZ,1601700242.0
346,Caledonia,42.81,-87.92,48.2,70.0,90.0,2.42,US,1601700243.0
347,Tekeli,44.83,78.82,57.63,34.0,5.0,5.01,KZ,1601700244.0
348,Kawalu,-7.38,108.21,78.4,80.0,95.0,5.57,ID,1601700245.0
349,Berlevag,70.86,29.09,46.89,85.0,88.0,13.82,NO,1601700245.0
350,Coihaique,-45.58,-72.07,28.4,68.0,0.0,1.7,CL,1601700084.0
351,Beloha,-25.17,45.05,71.26,61.0,60.0,13.06,MG,1601700246.0
352,Victoria Point,-27.58,153.3,78.01,54.0,0.0,5.99,AU,1601700248.0
353,San Miguel Acatan,15.7,-91.62,56.84,97.0,100.0,2.17,GT,1601700248.0
354,Los Llanos De Aridane,28.66,-17.92,73.4,73.0,75.0,11.41,ES,1601700249.0
355,Berdigestyakh,62.1,126.7,38.5,68.0,37.0,4.45,RU,1601700249.0
356,Porbandar,21.64,69.61,84.2,79.0,40.0,9.17,IN,1601700250.0
357,Lampa,-33.28,-70.9,48.99,78.0,0.0,5.82,CL,1601700251.0
358,Katiola,8.13,-5.1,71.08,98.0,100.0,4.94,CI,1601700251.0
359,Shubarshi,48.59,57.19,58.5,36.0,0.0,4.52,KZ,1601700252.0
360,Fairbanks,64.84,-147.72,59.0,41.0,40.0,6.93,US,1601699995.0
361,Basoko,1.24,23.62,70.63,93.0,100.0,0.89,CD,1601700253.0
362,Arua,3.02,30.91,64.63,93.0,15.0,5.66,UG,1601700254.0
363,Ciudad Bolivar,8.12,-63.55,76.91,84.0,77.0,6.29,VE,1601700254.0
364,Saint-Pierre,46.77,-56.17,61.52,99.0,100.0,22.15,PM,1601700255.0
365,Nanakuli,21.39,-158.15,80.6,74.0,40.0,3.36,US,1601700256.0
366,Tonekabon,36.82,50.87,69.8,83.0,40.0,2.66,IR,1601700256.0
367,Mnogovershinnyy,53.94,139.92,47.64,77.0,100.0,8.25,RU,1601700257.0
368,Flinders,-34.58,150.86,79.0,54.0,0.0,4.0,AU,1601700257.0
369,Port Blair,11.67,92.75,79.79,83.0,100.0,13.78,IN,1601700012.0
370,Muscat,23.61,58.59,91.4,19.0,17.0,1.12,OM,1601700259.0
371,Finschhafen,-6.6,147.87,82.85,68.0,2.0,8.16,PG,1601700259.0
372,Moree,-29.47,149.85,86.0,16.0,0.0,6.93,AU,1601700260.0
373,Manta,-0.95,-80.73,71.6,88.0,90.0,10.29,EC,1601700261.0
374,Sitia,35.2,26.1,70.0,82.0,0.0,1.01,GR,1601700262.0
375,Zhanaozen,43.3,52.8,56.75,37.0,100.0,13.29,KZ,1601700262.0
376,Sioux Lookout,50.1,-91.92,35.6,69.0,90.0,3.36,CA,1601699989.0
377,Mana,5.66,-53.78,79.16,86.0,53.0,9.1,GF,1601700264.0
378,Inongo,-1.95,18.27,70.14,94.0,61.0,0.87,CD,1601700264.0
379,Swellendam,-34.02,20.44,57.2,93.0,100.0,8.05,ZA,1601700265.0
380,Takoradi,4.88,-1.76,76.1,88.0,82.0,5.73,GH,1601700266.0
381,Zhaotong,27.32,103.72,64.15,83.0,97.0,7.54,CN,1601700267.0
382,Carutapera,-1.2,-46.02,78.3,85.0,29.0,8.08,BR,1601700267.0
383,Vostok,46.49,135.88,51.28,74.0,41.0,10.51,RU,1601700106.0
384,Lagos,37.1,-8.67,55.4,82.0,38.0,8.05,PT,1601700268.0
385,Burgthann,49.35,11.31,60.01,67.0,99.0,6.93,DE,1601700269.0
386,Arraial Do Cabo,-22.97,-42.03,74.25,86.0,0.0,17.36,BR,1601700229.0
387,Yarim,14.3,44.38,57.52,35.0,0.0,19.93,YE,1601700270.0
388,Yingcheng,30.95,113.55,62.6,93.0,40.0,6.71,CN,1601700271.0
389,Limon,10.0,-83.03,79.02,81.0,100.0,5.39,CR,1601700271.0
390,Arman,59.7,150.17,49.95,59.0,64.0,3.31,RU,1601700272.0
391,Bilma,18.69,12.92,85.62,31.0,0.0,4.43,NE,1601700138.0
392,Horsham,-36.72,142.2,80.78,52.0,94.0,10.58,AU,1601700026.0
393,Cayenne,4.93,-52.33,75.2,100.0,20.0,10.45,GF,1601700273.0
394,Aksarka,66.56,67.8,36.7,76.0,32.0,21.81,RU,1601700009.0
395,Acapulco,16.86,-99.89,78.33,76.0,32.0,2.82,MX,1601700274.0
396,Laguna,-28.48,-48.78,63.68,96.0,100.0,11.36,BR,1601700274.0
397,Ejido,8.55,-71.24,65.98,63.0,96.0,5.55,VE,1601700191.0
398,Talcahuano,-36.72,-73.12,44.6,70.0,46.0,8.05,CL,1601700276.0
399,Havre-Saint-Pierre,50.23,-63.6,48.2,100.0,90.0,10.29,CA,1601700276.0
400,Kulotino,58.45,33.38,49.21,86.0,89.0,6.22,RU,1601700277.0
401,Agdas,40.65,47.48,60.8,87.0,20.0,2.44,AZ,1601700278.0
402,Hirara,24.8,125.28,86.0,66.0,75.0,16.11,JP,1601700279.0
403,Kulhudhuffushi,6.62,73.07,81.91,76.0,87.0,13.04,MV,1601700279.0
404,Gilroy,37.01,-121.57,80.6,28.0,0.0,4.7,US,1601700047.0
405,Kushmurun,52.45,64.63,56.43,47.0,56.0,6.2,KZ,1601700067.0
406,Ahtopol,42.1,27.95,57.99,93.0,20.0,1.12,BG,1601700281.0
407,Ouallam,14.32,2.09,83.1,59.0,0.0,5.19,NE,1601700281.0
408,Kushima,31.46,131.23,80.6,65.0,20.0,8.05,JP,1601700023.0
409,Seredka,58.16,28.19,53.6,71.0,85.0,4.47,RU,1601700282.0
410,San Patricio,19.22,-104.7,77.02,88.0,2.0,3.56,MX,1601700283.0
411,Pitimbu,-7.47,-34.81,73.4,94.0,40.0,5.82,BR,1601700283.0
412,Bayeux,49.25,-0.83,48.2,93.0,100.0,3.36,FR,1601700284.0
413,Bjornevatn,69.67,29.98,44.6,93.0,100.0,17.22,NO,1601700285.0
414,Baykit,61.67,96.37,36.73,85.0,100.0,7.99,RU,1601700255.0
415,Tautira,-17.73,-149.15,82.0,78.0,20.0,23.04,PF,1601700286.0
416,Sohagpur,22.7,78.2,84.0,47.0,0.0,3.47,IN,1601700287.0
417,Buzmeyin,38.05,58.21,60.8,26.0,40.0,2.24,TM,1601700287.0
418,Nanae,41.88,140.68,68.0,88.0,75.0,8.05,JP,1601700288.0
419,Oxapampa,-10.58,-75.4,57.25,82.0,11.0,3.87,PE,1601700288.0
420,Novo Mesto,45.8,15.17,52.0,100.0,45.0,1.12,SI,1601700289.0
421,Callaguip,18.07,120.49,84.78,67.0,0.0,6.53,PH,1601700290.0
422,Pandan,14.05,124.17,84.22,78.0,51.0,7.0,PH,1601700290.0
423,Mandali,33.75,45.55,92.1,14.0,0.0,2.64,IQ,1601700292.0
424,Evensk,61.95,159.23,42.73,62.0,0.0,5.19,RU,1601700293.0
425,Camacha,33.08,-16.33,69.8,77.0,75.0,11.41,PT,1601700293.0
426,Dejen,10.17,38.13,55.6,96.0,20.0,2.98,ET,1601700294.0
427,Muros,42.78,-9.06,46.99,95.0,23.0,1.01,ES,1601700295.0
428,Taksimo,56.34,114.88,39.13,66.0,96.0,3.71,RU,1601700295.0
429,Dingle,52.14,-10.27,50.31,71.0,45.0,14.34,IE,1601700296.0
430,Ouahigouya,13.58,-2.42,77.22,79.0,69.0,8.57,BF,1601700296.0
431,Seoul,37.57,126.98,75.2,53.0,90.0,10.02,KR,1601700297.0
432,Chapais,49.78,-74.85,35.6,80.0,90.0,4.7,CA,1601700298.0
433,Cacapava Do Sul,-30.51,-53.49,51.44,85.0,88.0,14.09,BR,1601700299.0
434,Chumikan,54.72,135.31,50.32,75.0,100.0,16.33,RU,1601700277.0
435,Teahupoo,-17.83,-149.27,82.0,78.0,20.0,23.04,PF,1601700300.0
436,Mongoumba,3.64,18.59,70.59,96.0,65.0,1.12,CF,1601700301.0
437,Tias,28.96,-13.64,71.6,78.0,75.0,11.41,ES,1601700302.0
438,Pangoa,-12.12,-73.0,68.45,95.0,94.0,3.44,PE,1601700303.0
439,Sao Joao Da Barra,-21.64,-41.05,74.34,85.0,0.0,12.75,BR,1601700069.0
440,Vestmanna,62.16,-7.17,50.0,93.0,99.0,21.92,FO,1601700278.0
441,Great Yarmouth,52.61,1.73,59.0,99.0,100.0,4.0,GB,1601700305.0
442,Aba,5.11,7.37,73.72,94.0,100.0,2.86,NG,1601700305.0
443,Korla,41.76,86.15,63.27,25.0,85.0,4.85,CN,1601700306.0
444,Praya,-8.71,116.27,89.6,59.0,40.0,12.75,ID,1601700307.0
445,Batsfjord,70.63,29.72,45.55,85.0,93.0,14.56,NO,1601700307.0
446,San Ignacio,-5.15,-79.0,62.87,79.0,80.0,2.06,PE,1601700308.0
447,Batouri,4.43,14.37,67.3,98.0,100.0,2.59,CM,1601700309.0
448,Kyaikkami,16.08,97.57,82.92,77.0,100.0,3.8,MM,1601700309.0
449,Tiksi,71.69,128.87,27.43,94.0,4.0,18.34,RU,1601700310.0
450,Lexington,37.99,-84.48,48.99,87.0,90.0,2.82,US,1601700123.0
451,Arrecife,28.96,-13.55,73.4,78.0,75.0,11.41,ES,1601700120.0
452,Henties Bay,-22.12,14.28,46.99,87.0,0.0,1.01,NA,1601700311.0
453,Kushiro,42.98,144.37,60.8,93.0,75.0,16.11,JP,1601700312.0
454,Pacific Grove,36.62,-121.92,71.01,57.0,1.0,2.26,US,1601700265.0
455,At-Bashi,41.17,75.81,46.06,54.0,98.0,1.14,KG,1601700313.0
456,Port Macquarie,-31.43,152.92,80.01,47.0,0.0,4.0,AU,1601700020.0
457,Deputatskiy,69.3,139.9,26.02,89.0,73.0,20.87,RU,1601700314.0
458,Yinchuan,38.47,106.27,63.41,25.0,0.0,2.93,CN,1601700315.0
459,Tazovskiy,67.47,78.7,34.63,85.0,100.0,22.19,RU,1601700316.0
460,Naryan-Mar,67.67,53.09,37.53,79.0,60.0,10.04,RU,1601700316.0
461,Ust-Tsilma,65.44,52.15,37.4,85.0,66.0,5.84,RU,1601700317.0
462,Berasia,23.63,77.43,80.6,61.0,25.0,11.41,IN,1601700318.0
463,Mae Hong Son,19.3,97.97,87.8,70.0,40.0,3.36,TH,1601700319.0
464,Clyde River,70.47,-68.59,24.8,92.0,90.0,3.36,CA,1601700319.0
465,Ko Samui,9.54,99.94,86.0,66.0,20.0,2.24,TH,1601700320.0
466,Arona,28.1,-16.68,72.0,73.0,20.0,5.82,ES,1601700320.0
467,Bafoulabe,13.81,-10.83,75.04,93.0,58.0,1.66,ML,1601700321.0
468,Turukhansk,65.82,87.98,44.38,91.0,100.0,7.78,RU,1601700099.0
469,Isla Mujeres,21.23,-86.73,77.0,100.0,90.0,9.17,MX,1601700322.0
470,Khandbari,27.37,87.2,83.37,52.0,1.0,3.2,NP,1601700157.0
471,Margate,-30.86,30.37,62.89,83.0,100.0,18.32,ZA,1601700323.0
472,Beitbridge,-22.22,30.0,66.61,78.0,100.0,17.38,ZW,1601700324.0
473,Niquero,20.04,-77.58,79.88,80.0,96.0,5.75,CU,1601700324.0
474,Davila,18.47,120.58,85.64,66.0,0.0,14.67,PH,1601700326.0
475,Bubaque,11.28,-15.83,80.98,80.0,69.0,13.85,GW,1601700326.0
476,Tatawin,32.93,10.45,91.4,18.0,70.0,11.41,TN,1601700327.0
477,Narsaq,60.92,-46.05,37.4,86.0,99.0,3.76,GL,1601700328.0
478,Maravilha,-26.76,-53.17,71.01,89.0,98.0,10.0,BR,1601700328.0
479,Lao Cai,22.48,103.95,88.11,64.0,64.0,2.91,VN,1601700329.0
480,Kizner,56.27,51.51,52.95,82.0,59.0,5.82,RU,1601700329.0
481,Olafsvik,64.89,-23.71,40.28,76.0,52.0,14.88,IS,1601700330.0
482,Tocopilla,-22.09,-70.2,60.12,65.0,45.0,5.53,CL,1601700331.0
483,Beringovskiy,63.05,179.32,39.25,93.0,100.0,25.28,RU,1601700331.0
484,Caiaponia,-16.96,-51.81,75.78,19.0,7.0,3.06,BR,1601700332.0
485,Te Anau,-45.42,167.72,51.21,88.0,100.0,9.98,NZ,1601700333.0
486,Kesova Gora,57.58,37.29,49.5,81.0,99.0,6.51,RU,1601700333.0
487,Bojnurd,37.47,57.33,57.2,31.0,30.0,2.1,IR,1601700334.0
488,Richards Bay,-28.78,32.04,62.85,87.0,93.0,6.51,ZA,1601700334.0
489,Teguise,29.06,-13.56,71.6,78.0,75.0,11.41,ES,1601700335.0
490,Oussouye,12.48,-16.55,77.68,87.0,19.0,6.96,SN,1601700336.0
491,Attendorn,51.13,7.9,57.99,90.0,95.0,3.47,DE,1601700336.0
492,Bayji,34.93,43.49,83.25,23.0,19.0,5.03,IQ,1601700337.0
493,Bonavista,48.65,-53.11,60.01,98.0,100.0,16.58,CA,1601700338.0
494,Mokhsogollokh,61.47,128.92,40.8,65.0,14.0,2.15,RU,1601700338.0
495,Mehamn,71.04,27.85,46.38,86.0,74.0,13.6,NO,1601700193.0
496,Maun,-19.98,23.42,71.6,60.0,19.0,5.82,BW,1601700339.0
497,Sjenica,43.27,20.0,50.36,88.0,100.0,7.11,RS,1601700340.0
498,Dawlatabad,36.41,64.91,72.64,18.0,0.0,8.01,AF,1601700341.0
499,Mazamari,-11.33,-74.53,71.1,73.0,64.0,1.99,PE,1601700341.0
500,Les Cayes,18.2,-73.75,79.16,81.0,96.0,4.36,HT,1601700343.0
501,Salym,60.06,71.48,49.57,89.0,100.0,8.63,RU,1601700343.0
502,Kruisfontein,-34.0,24.73,57.99,93.0,100.0,5.99,ZA,1601700078.0
503,Vila Do Maio,15.13,-23.22,78.8,78.0,0.0,23.04,CV,1601700345.0
504,Paracuru,-3.41,-39.03,80.01,74.0,38.0,25.99,BR,1601700345.0
505,Pacifica,37.61,-122.49,68.0,82.0,20.0,14.99,US,1601700346.0
506,Hanmer Springs,-42.52,172.82,57.97,59.0,98.0,10.38,NZ,1601700346.0
507,Aberdeen,45.46,-98.49,46.99,65.0,90.0,3.36,US,1601700315.0
508,Bam,29.11,58.36,83.26,15.0,0.0,8.08,IR,1601700348.0
509,Lompoc,34.64,-120.46,71.6,63.0,1.0,6.85,US,1601700349.0
510,Kirakira,-10.45,161.92,83.16,71.0,19.0,11.56,SB,1601700349.0
511,Ayan,56.45,138.17,49.53,68.0,100.0,6.31,RU,1601700350.0
512,Chakrata,30.7,77.85,77.0,78.0,0.0,2.59,IN,1601700351.0
513,Roma,-26.58,148.78,86.14,22.0,0.0,12.03,AU,1601700351.0
514,Griffith,-34.28,146.03,86.0,20.0,0.0,12.75,AU,1601700352.0
515,Kaeo,-35.1,173.78,63.0,56.0,10.0,7.0,NZ,1601700353.0
516,Nanortalik,60.14,-45.24,37.96,92.0,100.0,12.21,GL,1601700190.0
517,Iqaluit,63.75,-68.51,30.2,74.0,90.0,5.82,CA,1601700303.0
518,Boyuibe,-20.42,-63.28,73.26,54.0,99.0,8.61,BO,1601700354.0
519,Bridlington,54.08,-0.19,55.99,100.0,100.0,9.17,GB,1601700355.0
520,Marsh Harbour,26.54,-77.06,81.75,79.0,27.0,12.1,BS,1601700355.0
521,Berea,41.37,-81.85,50.0,76.0,75.0,4.7,US,1601700071.0
522,Nara,15.17,-7.29,82.74,65.0,73.0,9.35,ML,1601700357.0
523,Usinsk,65.99,57.53,35.96,83.0,41.0,12.77,RU,1601700155.0
524,Tara,56.89,74.37,52.02,83.0,99.0,9.35,RU,1601700358.0
525,Codajas,-3.84,-62.06,74.35,91.0,24.0,1.81,BR,1601700358.0
526,Antalaha,-14.9,50.28,76.78,66.0,67.0,4.56,MG,1601700355.0
527,Kashi,39.45,75.98,59.0,30.0,75.0,6.71,CN,1601700360.0
528,Bad Wildungen,51.12,9.12,59.0,77.0,90.0,5.82,DE,1601700361.0
529,Malazgirt,39.14,42.54,61.52,40.0,0.0,1.39,TR,1601700361.0
530,Okato,-39.2,173.88,60.01,70.0,28.0,8.01,NZ,1601700362.0
531,Hasaki,35.73,140.83,79.0,61.0,75.0,4.7,JP,1601700362.0
532,Lavrentiya,65.58,-171.0,42.66,88.0,85.0,12.8,RU,1601700363.0
533,Nosy Varika,-20.58,48.53,76.69,74.0,13.0,2.64,MG,1601700364.0
534,Tokur,53.13,132.9,48.29,57.0,100.0,10.67,RU,1601700364.0
535,Palenque,17.52,-91.97,70.48,96.0,100.0,11.72,MX,1601700309.0
536,Darnah,32.77,22.64,80.22,42.0,0.0,26.62,LY,1601700365.0
537,Tezu,27.92,96.17,89.24,55.0,71.0,1.86,IN,1601700366.0
538,Balad,34.02,44.15,89.64,15.0,31.0,1.28,IQ,1601700367.0
539,Opuwo,-18.06,13.84,59.72,31.0,97.0,2.04,NA,1601700367.0
540,Lisakovsk,52.54,62.49,53.98,40.0,46.0,6.87,KZ,1601700368.0
541,San Andres,12.58,-81.7,78.8,88.0,40.0,4.7,CO,1601700235.0
542,Baiyin,36.56,104.21,64.0,34.0,91.0,2.24,CN,1601700370.0
543,Krasnoselkup,65.7,82.47,43.59,95.0,100.0,8.55,RU,1601700370.0
544,Camana,-16.62,-72.71,60.15,81.0,32.0,7.4,PE,1601700371.0
545,Corner Brook,48.97,-57.95,57.2,93.0,90.0,6.93,CA,1601700371.0
546,Mafinga,-7.25,35.07,72.32,55.0,34.0,3.87,TZ,1601700372.0
547,Makakilo City,21.35,-158.09,80.6,74.0,40.0,3.36,US,1601700373.0
548,Coquimbo,-29.95,-71.34,48.2,87.0,1.0,2.24,CL,1601700374.0
549,Luderitz,-26.65,15.16,52.77,84.0,0.0,3.87,NA,1601700374.0
550,Dumas,35.87,-101.97,63.0,50.0,1.0,11.65,US,1601700375.0
551,Thinadhoo,0.53,72.93,82.81,76.0,98.0,14.23,MV,1601700375.0
552,Lazaro Cardenas,17.96,-102.2,77.11,73.0,12.0,4.63,MX,1601700376.0
553,Novobureyskiy,49.8,129.88,51.28,78.0,100.0,3.33,RU,1601700377.0
